{
"type": "FeatureCollection",
"name": "infra_seguranca_ATINGIDOS_rio_grande___cenario_maio_2024_50",
"crs": { "type": "name", "properties": { "name": "urn:ogc:def:crs:OGC:1.3:CRS84" } },
"features": [
{ "type": "Feature", "properties": { "Nome": "6° Batalhão de Polícia Militar - Brigada Militar", "Endereço": "Av. Honório Bicalho, 20 - Getúlio Vargas", "Latitude": -32.035382, "Longitude": -52.0795552 }, "geometry": { "type": "Point", "coordinates": [ -52.0795552, -32.035382 ] } },
{ "type": "Feature", "properties": { "Nome": "Policia Cívil - Delegacia Especializada para a Mulher", "Endereço": "R. Mal. Andréia, 44 - Centro", "Latitude": -32.0316079, "Longitude": -52.0892719 }, "geometry": { "type": "Point", "coordinates": [ -52.0892719, -32.0316079 ] } },
{ "type": "Feature", "properties": { "Nome": "Polícia Civil Central", "Endereço": "Av. Silva Paes, 249 - Centro", "Latitude": -32.0337999, "Longitude": -52.093381 }, "geometry": { "type": "Point", "coordinates": [ -52.093381, -32.0337999 ] } },
{ "type": "Feature", "properties": { "Nome": "Polícia Civil - Delegacia de Polícia de Pronto Atendimento", "Endereço": "R. Benjamin Constant - Centro", "Latitude": -32.0337156, "Longitude": -52.0937966 }, "geometry": { "type": "Point", "coordinates": [ -52.0937966, -32.0337156 ] } },
{ "type": "Feature", "properties": { "Nome": "Delegacia Regional de Polícia Civil de Rio Grande - 7ªDPRI", "Endereço": "Av. Silva Paes, 249 - 7° andar", "Latitude": -32.0337227, "Longitude": -52.0935505 }, "geometry": { "type": "Point", "coordinates": [ -52.0935505, -32.0337227 ] } },
{ "type": "Feature", "properties": { "Nome": "Polícia Federal de Rio Grande", "Endereço": "R. General Osório, 512 - Centro", "Latitude": -32.029893, "Longitude": -52.0996317 }, "geometry": { "type": "Point", "coordinates": [ -52.0996317, -32.029893 ] } },
{ "type": "Feature", "properties": { "Nome": "Polícia Civil - DRACO Rio Grande ", "Endereço": "Av. Silva Paes, 249 - 6⁰ andar", "Latitude": -32.0337155, "Longitude": -52.0935497 }, "geometry": { "type": "Point", "coordinates": [ -52.0935497, -32.0337155 ] } },
{ "type": "Feature", "properties": { "Nome": "1ª Delegacia de Polícia Civil de Rio Grande - 1ªDP", "Endereço": "Av. Silva Paes, 249 - 4 andar - Centro", "Latitude": -32.0336734, "Longitude": -52.0935443 }, "geometry": { "type": "Point", "coordinates": [ -52.0935443, -32.0336734 ] } },
{ "type": "Feature", "properties": { "Nome": "Policia Ambiental (PATRAM) - Rio Grande - Brigada Militar", "Endereço": "R. Gen. Canabarro, n° 01 - Centro", "Latitude": -32.0269179, "Longitude": -52.1040532 }, "geometry": { "type": "Point", "coordinates": [ -52.1040532, -32.0269179 ] } },
{ "type": "Feature", "properties": { "Nome": "1ª Companhia de Policiamento Ostensivo", "Endereço": "R. Sen. Corrêa, 559 - Centro", "Latitude": -32.0395755, "Longitude": -52.1018798 }, "geometry": { "type": "Point", "coordinates": [ -52.1018798, -32.0395755 ] } },
{ "type": "Feature", "properties": { "Nome": "Brigada Militar do Estado do Rio Grande do Sul", "Endereço": "Av. Honório Bicalho - Getúlio Vargas", "Latitude": -32.042059, "Longitude": -52.076561 }, "geometry": { "type": "Point", "coordinates": [ -52.076561, -32.042059 ] } },
{ "type": "Feature", "properties": { "Nome": "Associação dos Bombeiros de Rio Grande", "Endereço": "R. Conselheiro Teixeira Júnior, 199 - Cidade Nova", "Latitude": -32.0356253, "Longitude": -52.1147988 }, "geometry": { "type": "Point", "coordinates": [ -52.1147988, -32.0356253 ] } },
{ "type": "Feature", "properties": { "Nome": "Corpo de Bombeiros Militar Zona Sul", "Endereço": "R. Gen. Vitorino - Centro, Rio Grande", "Latitude": -32.0350727, "Longitude": -52.1057121 }, "geometry": { "type": "Point", "coordinates": [ -52.1057121, -32.0350727 ] } }
]
}
